[{"latitude":40.742683,"longitude":-73.873578,"label":"Ch'an Meditation Center","name":"Ch'an Meditation Center of Dharma Drum","street":"90-56 Corona Avenue","city":"Elmhurst","state":"NY","zip":11373,"website":"http://chancenter.org/","phone":"(718) 592-6593","blurb":"","iconcode":1},{"latitude":40.775409,"longitude":-73.809051,"label":"Fo Guang Shan Temple","name":"Fo Guang Shan Temple of IBPS","street":"154-37 Barclay Avenue","city":"Flushing","state":"NY","zip":11355,"website":"http://www.fgsny.org/","phone":"(718) 939-8318","blurb":"","iconcode":1},{"latitude":40.879363,"longitude":-73.903676,"label":"Temple of Enlightenment","name":"Temple of Enlightenment","street":"3070 Albany Crescent","city":"Bronx","state":"NY","zip":10463,"website":"http://www.baus.org/","phone":"(718) 884-9111","blurb":"","iconcode":1},{"latitude":40.861146,"longitude":-73.901182,"label":"USA Buddhayaram Temple","name":"USA Buddhayaram Temple","street":"2084 Anthony Avenue","city":"Bronx","state":"NY","zip":10457,"website":"no website","phone":"(718) 933-8053","blurb":"","iconcode":1},{"latitude":40.677751,"longitude":-73.98522,"label":"Brooklyn Zen Center","name":"Brooklyn Zen Center","street":"505 Carroll Street # 2","city":"Brooklyn","state":"NY","zip":11215,"website":"https://brooklynzen.org/","phone":"(718) 701-1083","blurb":"","iconcode":1},{"latitude":40.686086,"longitude":-73.980882,"label":"Zen Center of New York City","name":"Fire Lotus Temple","street":"500 State Street","city":"Brooklyn","state":"NY","zip":11217,"website":"http://zcnyc.mro.org/","phone":"718) 875-8229","blurb":"","iconcode":1},{"latitude":40.63634,"longitude":-74.14301,"label":"Staten Island Buddhist Vihara","name":"Staten Island Buddhist Vihara","street":"115 John Street","city":"Staten Island","state":"NY","zip":10302,"website":"http://www.sibv.org/","phone":"(718) 556-2051","blurb":"","iconcode":1},{"latitude":40.577522,"longitude":-74.138146,"label":"The Jacques Marchais Museum of Tibetan Art","name":"The Jacques Marchais Museum of Tibetan Art","street":"338 Lighthouse Avenue","city":"Staten Island","state":"NY","zip":10306,"website":"http://www.tibetanmuseum.org/","phone":"(718) 987-3500","blurb":"","iconcode":2},{"latitude":40.801917,"longitude":-73.970103,"label":"New York Buddhist Church","name":"New York Buddhist Church","street":"331-332 Riverside Drive","city":"New York","state":"NY","zip":10025,"website":"http://www.newyorkbuddhistchurch.org/","phone":"(212) 678-0305","blurb":"","iconcode":1},{"latitude":40.759136,"longitude":-73.961846,"label":"Won Buddhism of Manhattan","name":"Won Buddhism of Manhattan","street":"431 East 57th Street","city":"New York","state":"NY","zip":10022,"website":"http://nyc.wonbuddhism.org/","phone":"(212) 750-2773","blurb":"","iconcode":1},{"latitude":40.745284,"longitude":-73.990023,"label":"New York Insight Meditation Center","name":"New York Insight Meditation Center","street":"28 West 27th Street","city":"New York","state":"NY","zip":10001,"website":"https://www.nyimc.org/","phone":"(212) 213-4802","blurb":"","iconcode":1},{"latitude":40.725807,"longitude":-73.99695,"label":"The Village Zendo","name":"The Village Zendo","street":"588 Broadway, Suite 1108","city":"New York","state":"NY","zip":10012,"website":"http://villagezendo.org/","phone":"(212) 340-4656","blurb":"","iconcode":1}]